place_id	name	latitude	longitude
1	Aaby	57.1652	9.74127
2	Aagaard	55.5894	9.41408
3	Aalbæk	57.5955	10.4132
4	Aalborg	57.0502	9.92384
5	Aale	55.8863	9.56231
6	Aalsø	56.3721	10.8522
7	Aarestrup	56.8217	9.74733
8	Aarhus	56.159	10.2072
9	Aarslev	56.4011	10.1499
10	Aasted	57.4348	10.3768
11	Åbenrå	55.0505	9.41294
12	Åby  Åbyen	57.564	10.03
13	Æbletoft	56.1971	10.6814
14	Ågerup mølle	55.6909	12.1765
15	Aggersbøl	55.7974	9.64535
16	Agri	56.2311	10.5237
17	Ajdt	56.3168	9.78814
18	Ajstrup	57.1763	9.98349
19	Åkjær	56.1089	9.86729
20	Albæk	57.2336	10.4234
21	Aldal	56.8096	9.80168
22	Alken	56.0536	9.84777
23	Alling	56.1143	9.73293
24	Almind	55.567	9.48861
25	Almind banker	55.5689	9.48991
26	Als	54.9661	9.77944
27	Alstrup	56.647	10.0116
28	Alstrup bakker	57.2777	9.75487
29	Amaliegård	56.6234	10.1593
30	Amdal	56.5383	9.51015
31	Ammitsbøl	55.6462	9.41426
32	Andrup	55.3582	9.3877
33	Arden Station	56.7703	9.86226
36	Aså	57.1481	10.4203
37	Astrup	57.4803	10.097
38	Åstrup	57.4392	9.93612
39	Attrup, Koed sogn	56.3881	10.557
40	Avlum	56.2684	8.7991
41	Avning	56.433	10.3773
42	Baastrup Mark	56.0021	9.94875
43	Baggesvogn	57.5079	10.1472
44	Balle	55.7106	9.37577
45	Balle	56.317	10.3779
46	Barholt	57.4081	10.1597
48	Bastruphøj	56.3119	10.2096
49	Bavnhøj	56.8263	9.75958
50	Bedsted	56.8096	8.40515
52	Bendstrup	56.3644	10.3296
53	Bilsbæk	55.9294	10.1107
54	Bindslev	57.5347	10.172
55	Bislev	56.9495	9.6156
56	Bjærgby	57.5171	10.0454
57	Bjærge	55.7847	9.85819
58	Bjærggrav	56.4904	9.89689
59	Bjedstrup	56.0663	9.85405
60	Bjerre	55.787	9.84788
61	Blanke	55.4985	9.87607
62	Blegind	56.0699	10.0732
63	Bodholm	56.359	10.1304
64	Boel	56.3501	8.30621
66	Boelshøj	56.6995	10.1407
67	Boes	56.0545	9.79954
68	Bogensholm	56.2107	10.5646
69	Bøgsted	57.4741	10.1043
70	Bolle	57.1379	10.2548
71	Boller	57.3861	10.0963
72	Borbjærg	56.4021	8.75505
73	Børglum	57.3661	9.83422
74	Børglum kloster	57.3718	9.79945
75	Boring	55.8694	9.59906
76	Bornholm	55.1042	8.7073
77	Borre	54.9979	12.451
78	Borup	57.4013	10.087
79	Borup Mark	57.4005	10.0793
80	Boslunde	55.3028	11.2721
81	Brabrand	56.16	10.1095
83	Brædstrup	55.9737	9.61434
84	Brændskov	57.2105	9.90967
85	Bræsten	55.6961	9.38447
86	Bragholdt	57.5637	10.1974
87	Bramstrup	56.3606	10.1506
88	Brandrup	55.5213	9.46682
89	Brandstrup	56.0763	9.80891
90	Brandstrup	56.2724	10.2813
91	Brandstrup	56.3645	9.50595
92	Bratbjerg	56.7935	9.66936
93	Bratten	57.5169	10.4602
94	Bremerholm	55.6775	12.5842
95	Brodgård	55.2247	10.0387
96	Brøndbyvester	55.6481	12.41
97	Brønderslev	57.2728	9.9442
98	Brønderup	57.4326	10.0157
99	Brøndsted mølle	55.6351	9.66565
100	Brorstrup	56.7676	9.6514
101	Bryggers-Knold	56.3625	10.1131
102	Buderup	56.8641	9.85582
103	Buderupholm	56.8583	9.84437
104	Bukballe	55.9931	9.947
105	Bukkjær	56.7941	9.8098
106	Burskov	57.4145	10.3795
107	Bygballe	56.3196	10.2014
108	Byghøj	57.4162	10.0744
109	Clausholm	56.3865	10.1714
110	Dakbjærg	56.053	9.83623
111	Dalby	55.4662	9.49367
112	Dalby Nedre	56.6379	10.2226
113	Dalhus	55.4749	9.11498
114	Dals Mølle	57.3932	10.13
115	Dalsager	57.3538	10.3279
116	Dalstrup	56.7237	8.92725
117	Damhuskro	55.6741	12.4744
118	Damsgårds mose	56.7847	8.65791
119	Dons	55.5559	9.44435
120	Dørup	56.0242	9.76004
122	Dover Kirke	56.0784	9.83505
123	Dragstrup sige Drastrup	57.0098	9.86134
124	Drenderupgård	55.4094	9.34056
125	Drengshøj	56.9642	8.67391
126	Dronningens høj	56.8525	9.83836
127	Dronninglund	57.1575	10.2879
128	Drostrup	56.3565	10.1017
129	Durup	56.7403	8.94705
130	Dybbøl	54.9152	9.72758
131	Ebdrup	56.3404	10.5409
132	Egå	56.2163	10.2685
133	Egebjerg	57.4414	10.1274
134	Egense	55.5589	10.6333
135	Egholm	56.8758	9.86603
136	Egholm slot	56.8757	9.86665
137	Egholt	55.5306	9.28247
138	Egsgaard Mark	55.8094	9.07443
139	Egtved	55.6151	9.30973
140	Elling	57.4771	10.4799
141	Elnebjærg	55.7617	11.811
142	Eltang	55.5274	9.53783
143	Em	57.3458	9.91255
144	Endelave	55.7635	10.2903
145	Enner	55.9176	9.72042
146	Erslev	56.3638	10.0746
147	Ersted	56.8247	9.77472
148	Eskerod	56.2935	10.3485
149	Faarup Station	56.5434	9.86459
150	Fårehus	55.0922	9.34006
151	Fåresø	56.0301	9.70168
152	Feldborg	56.358	8.96389
153	Femhøj	57.4381	10.1651
154	Ferslev	56.9532	9.89796
155	Firebakke	56.8876	8.64327
156	Firegaarde	56.0848	9.80335
157	Firhøj	55.5793	12.2196
158	Fladbro	56.4482	9.96288
159	Flavenskjold Kro	57.2526	10.2897
160	Flensborg	54.7865	9.43782
161	Flensted	56.1521	9.78584
162	Flensted mark	56.1503	9.8238
163	Fløjstrup	56.4133	10.2689
164	Fløø	56.8664	9.7951
166	Flovtrup	56.7897	9.08006
167	Foulum	56.7347	9.27024
168	Fovlum	56.7366	9.27158
169	Fovlumkjær	56.498	9.58314
170	Fredbjærg	56.8085	9.29411
171	Frederikshavn	57.4363	10.5242
172	Freggelund	56.8134	9.93955
173	Frejlev	57.0013	9.82022
174	Fuldbro	56.0262	9.83594
175	Fuldbro Mølle	56.0245	9.8344
176	Funder	56.1502	9.47243
177	Fyn	55.3513	10.3903
178	Fynshoved	55.6167	10.5936
179	Gaaseby	57.0135	10.1831
180	Gadbjærg	55.7635	9.31548
181	Galgebanke	55.9176	9.71498
182	Galgeknolden	56.2651	10.3206
183	Galten	56.3497	10.0471
184	Gammel Vrå	57.1957	9.92684
185	Gammelhøj	55.1413	10.5411
186	Gandrup	56.7414	9.82243
187	Gildebjærg	55.8565	12.4795
188	Ginderup	56.3784	10.1044
189	Gjedsted	56.6974	9.34014
190	Gjedved	55.946	9.8582
191	Gjellerup	56.144	9.04955
192	Gjern	56.2309	9.74116
193	Gjødvad	56.1872	9.60449
194	Gjøl	57.0703	9.71529
195	Gjørringhøj	56.5124	9.5516
196	Glentholm	56.0934	9.75345
197	Godthaab	57.3531	10.2418
198	Gravballegård	56.2269	9.63321
199	Gravensten	57.4451	10.2107
200	Gravlev	56.8464	9.81335
201	Gravold	56.1308	9.90973
202	Grejs	55.7628	9.54602
203	Grenaa	56.4059	10.8912
204	Grindslev	56.6989	9.06921
205	Grindsted	57.1472	10.0459
206	Grindsted By	57.1732	9.99449
207	Grønbæk	56.2757	9.61968
208	Grønfeld	56.2539	10.5528
209	Grumstrup	55.9649	9.98462
210	Grundfør	56.2667	10.0993
211	Grurup	56.7877	8.41823
212	Gudhjem	55.2105	14.9717
213	Gudsø mose	56.784	9.77507
214	Gudum	56.5203	8.46656
215	Gullestrup	56.1685	8.97737
216	Gunderupgård	56.829	9.22762
217	Haarup	56.1519	9.64693
219	Hadbjærg	56.3345	10.106
220	Hadsten	56.3241	10.0541
221	Hadsten Station	56.3267	10.0495
222	Hadsund	56.7191	10.1163
224	Hæstrup mill	57.4221	9.9632
226	Hald	56.6018	9.19759
227	Halds bakke	56.8805	8.6557
228	Hallendrup	56.373	10.1097
230	Halling	56.3346	10.1887
231	Halling skov	56.3317	10.1753
232	Hallund	57.2423	10.102
233	Hallundbæk	56.2932	8.86929
234	Hals	56.9952	10.3066
235	Hammel	56.259	9.85691
236	Hammer	57.1521	10.0186
237	Hammer bakker	57.1334	10.023
238	Handest	56.5697	9.82184
239	Hårkaraklippen	55.2114	14.9712
240	Harre	56.7167	8.92403
241	Harridslev	56.5011	10.1304
242	Harte	55.5088	9.41754
243	Hårup	56.2828	10.2189
244	Hasle	56.1711	10.1625
245	Haslum	56.4208	10.0267
246	Hassing	56.8271	8.44792
247	Hatholt	57.3424	10.1778
248	Havbjærg	56.7073	9.11639
249	Haverslev	56.7846	9.67464
250	Havlund	55.8267	8.59157
251	Hede Mølle	55.9846	9.99664
252	Hellum	57.27	10.1649
253	Hemstok	56.0896	9.87427
254	Henningshøj	56.6203	10.029
255	Herning	56.1422	8.95267
256	Hesselballe	56.264	10.2674
257	Hesthave	57.5447	10.1284
258	Hesthøj	56.5064	9.91885
259	Himmerland	57.0477	9.90272
260	Hindsholm	55.5357	10.668
261	Hinge	56.3713	10.0567
262	Hinnerup	56.262	10.0673
263	Hjelmslev	56.0826	9.8773
264	Hjerk	56.6939	8.9485
265	Hjørre	56.261	10.3319
266	Hjørring	57.4591	9.99749
267	Hjortshøj	56.2595	10.2644
268	Hobro	56.6323	9.78429
269	Højbjærg	56.3397	9.54414
270	Høje	55.1408	10.5364
271	Højelse	55.4991	12.1248
272	Holmen	56.4844	10.2433
273	Holstebro	56.3628	8.61146
274	Homaa	56.363	10.8083
737	Abildgård, Navtrup	56.7444	8.90908
276	Hørby	57.3487	10.3535
277	Horndrup Skov	56.01	9.86716
278	Horne	57.5627	9.9747
279	Hornslet	56.3126	10.3167
280	Hornslet Mark	56.3159	10.304
281	Hornum	55.8827	9.63461
282	Hornum	56.9105	9.74191
283	Horsens	55.858	9.86198
284	Hortshøj	56.2614	10.2658
285	Hørup	56.7568	8.42803
286	Hov (Hou)	57.0561	10.3749
287	Hovgårds mølle	56.3898	10.5549
288	Hulbæk	56.4718	9.65666
289	Humlum	56.5393	8.55095
290	Hummelgård	55.7422	9.33834
291	Hundborg, Ty	56.9288	8.50629
292	Hundslev	55.4082	10.5869
293	Hurup	56.805	10.2725
294	Hvalløs	56.3812	10.1442
295	Hvalpsund	56.7001	9.20321
296	Hverringe	55.4818	10.7008
297	Hvidbjærg	56.651	8.5316
298	Hvidsminde	55.9215	9.70172
299	Hvidsted	57.3953	10.0653
300	Hvidstedgård	57.3974	10.073
301	Hvilsager	56.3687	10.351
302	Hvirring	55.8917	9.65499
303	Hvivelstov	56.7481	8.8736
304	Hvonbjærg	56.3038	10.3117
305	Idskov	57.259	10.351
306	Ilbjærge	57.4162	10.0744
307	Ilbjærge-bro	57.42	10.0529
309	Illerup	56.0623	9.87394
310	Jebjærg	56.6709	9.01475
311	Jebjærg hede	56.6687	9.0019
312	Jerlev	55.6728	9.43858
313	Jerslev	57.285	10.0923
314	Jerslev Bro	57.2135	10.0289
315	Jerup	57.5341	10.4169
316	Jetsmark	57.2099	9.67306
317	Jordrup	55.5578	9.30966
318	Kalundborg	55.6811	11.0889
319	Kalvehave	55.0019	12.1642
320	Kalvø	56.2764	10.4682
321	Karby	56.7532	8.56142
322	Karlby	56.3514	10.2867
323	Karlslunde	55.5714	12.2315
324	Katrup mark	55.9543	9.91849
325	Kirketerp	56.8914	9.66415
326	Kirkholm	55.757	10.0287
327	Kjærteminde	55.4525	10.6608
328	Kjølske	57.2515	10.1177
329	Klakring	55.71	9.9771
330	Klanhøje	56.1514	9.8215
331	Klarup	57.0084	10.0504
332	Klem	56.3061	8.3869
333	Kloonhøj	57.4718	9.98808
334	Kloster	56.5993	9.2188
335	Kloster skov	56.6006	9.2061
336	Knebel	56.2137	10.4859
337	Knudsholm	57.4511	10.1025
338	København	55.6796	12.6029
339	Kolby	55.799	10.5571
340	Koldbroen	57.3475	10.1877
341	Kolding	55.4919	9.49149
342	Koldinghus	55.4961	9.46845
343	Kolind	56.3573	10.5855
344	Kollemorten	55.8542	9.3654
345	Kolundsund	56.3907	10.7266
346	Kongeåen	55.4248	9.0064
347	Kongstedlund	56.8743	10.1494
348	Konradsminde	56.7881	9.75347
349	Kragelund	56.1964	9.41047
350	Krajbjærg mark	56.2971	10.2812
351	Krannestrup	56.3108	10.2328
352	Kras	56.7713	9.75753
353	Kratgården	57.4278	10.1629
354	Krejbjærg	56.6563	8.86731
355	Kristrup	56.4449	10.059
356	Kundby	55.7126	11.5243
357	Kværndrup	55.1806	10.526
358	Kvissel	57.4709	10.4078
359	Langesø	55.4389	10.1997
360	Langkjær	55.3497	9.37188
361	Langskov	56.336	10.1382
362	Legårdslyst	56.045	9.88197
363	Lejrskov	55.5118	9.3217
364	Lemvig	56.5586	8.30832
365	Lendum	57.4093	10.2966
366	Lerkenfelt	56.7365	9.38719
367	Lild	57.1078	9.00233
368	Lille Arden	56.7691	9.91128
369	Lille Taaning	56.0136	9.84015
370	Limfjord	57.0603	9.91198
371	Linaa Mark	56.2964	10.2473
372	Linderum	57.4293	10.1803
373	Linderumgård	57.4328	10.1763
374	Linderumgårds mark	57.4374	10.1654
375	Lindkjær	55.2594	10.5589
376	Lindum skov	56.5767	9.69053
377	Lisbjærg Terp	56.216	10.1905
378	Liver å	57.4694	9.9072
379	Løgstør	56.9673	9.26375
380	Løgten	56.2838	10.3829
381	Løgten Kro	56.27	10.31
382	Løkken	57.3693	9.71759
383	Løndum	55.9281	9.77312
384	Lørslev	57.4284	10.0853
385	Løsning Station	55.8027	9.69706
386	Løvenholms skov	56.4446	10.4979
387	Lovns	56.6965	9.2377
388	Lund	55.7493	12.9461
389	Lunde	55.1375	10.5274
390	Lunden	57.2356	10.1753
391	Lundø	56.6218	9.14028
392	Lyndelse Kro	55.2092	10.2981
393	Lyngbjærg	56.9643	9.81986
394	Lyngby	56.3665	10.7446
395	Lyngby Torp	57.4013	9.78314
396	Lystrup	56.2294	10.2374
397	Madum	56.2418	8.28632
398	Madum Sø	56.8064	9.93258
399	Malt	55.4727	9.06973
400	Månnes	56.0509	9.83219
401	Mari-Malene	56.3888	10.4798
402	Martofte	55.5474	10.6596
403	Mastrup	56.8786	9.82795
404	Medkjær	56.3454	10.4734
405	Mejlby	56.3007	10.2134
406	Mesing	56.0742	9.94138
407	Mjels	56.9295	9.90055
408	Møgelhøje	56.4034	10.2787
409	Mølgård	57.4322	10.0955
410	Mølholm	55.6851	9.54206
411	Mølholt	57.2449	10.4251
412	Mollerup	56.1561	9.72682
413	Mols	56.2334	10.524
414	Møltrup	56.7777	9.94735
415	Mørke	56.3363	10.378
416	Mors	56.812	8.73672
417	Mosbjærg	57.5022	10.2609
418	Mossø	56.0418	9.77737
419	Mylenberg	56.7833	9.83971
421	Mylund	57.3209	10.1663
422	Navtrup	56.7463	8.9104
423	Nedre Hornbæk	56.4675	9.97637
424	Nibe	56.9843	9.64058
425	Nielstrup	56.3664	10.1437
426	Nødager	56.3449	10.6368
427	Nörager	56.4792	10.5027
428	Nordskov	55.5985	10.6276
429	Nørlund	56.7833	9.71547
430	Nørlund skov	56.783	9.76852
431	Nørre Bjært	55.5126	9.52312
432	Nørre Fardrup	55.3638	8.73246
433	Nørre Kongerslev	56.9102	10.1215
434	Nørre Sundby	57.0594	9.92842
435	Nørre Tranders	57.0327	9.99886
436	Nørre Vissing	56.1249	9.84764
437	Nørre Vosborg	56.3303	8.33367
438	Nørre-Harridslev	57.4561	9.89261
439	Nørre-Lem	56.6023	8.77203
440	Nørre-Sundby	57.0658	9.92268
441	Nygård	55.9707	10.0607
442	Nyrup	56.7718	9.50233
443	Nysum	56.757	9.77694
444	Ødis	55.4099	9.38388
445	Ødsted	55.6576	9.40066
446	Ødum	56.3126	10.1345
447	Øksenvad	57.4129	10.0963
448	Ølgod	55.8078	8.61787
449	Ølst	56.3877	10.0861
450	Oplev	56.8359	9.79926
451	Ørre	56.2364	8.87417
452	Ørum	56.4841	9.62445
453	Østbjerg bakker	57.1311	10.0091
454	Øster Bording	56.1912	9.48546
455	Øster Brønderslev	57.2481	9.99782
456	Øster Gjesten	55.5282	9.21429
457	Øster Hassing	57.07	10.2025
458	Øster Hornum	56.94	9.7529
459	Østergård	56.0719	9.84456
460	Øster Løgum	55.1172	9.36115
461	Østrup	57.2605	9.68693
462	Over Feldborg	56.3446	8.95001
463	Pigshøj	55.2455	9.916
464	Pirrup Krat	57.1341	9.46386
465	Pittersø	56.1263	9.89665
466	Pølse høje	55.0065	12.1596
467	Raabjærg	57.6209	10.3112
468	Rærup	56.7709	9.31497
469	Rebild	56.8348	9.8502
470	Ramme	56.4906	8.21174
471	Randers	56.4605	10.0497
472	Randum	56.9034	9.23103
473	Rårup	55.5685	10.3153
474	Rask	55.8838	9.59861
475	Rask Mølle	55.871	9.61122
476	Ravheden	57.5297	10.2376
477	Ravnholt	55.2631	10.5841
478	Ravnkilde	56.7564	9.75634
479	Ravnsbakke	56.7013	9.07
480	Ravnsø	56.1072	9.84324
481	Regtrup	56.3679	10.2092
483	Rejstrup	56.5161	9.85065
484	Rendborg	57.4942	10.4255
486	Ringive	55.8001	9.17733
487	Risby	55.135	11.9295
488	Rødding	56.6494	8.81116
489	Røde mølle	56.8225	9.80133
490	Rodskov	56.3013	10.364
491	Rokkergyden	55.1963	10.535
492	Rold	56.777	9.81524
493	Rold skov	56.7958	9.8153
494	Rønde	56.2971	10.4813
495	Rønnebjærg	57.3603	10.0886
496	Rosenholm	55.6738	9.82616
497	Rosenholm	56.3339	10.3314
498	Rosenlund Bakker	56.3283	9.94639
500	Rostved	56.3088	10.5223
501	Røved	56.3144	10.171
502	Røverstuebakke	55.8882	9.33699
503	Rud	56.3634	10.1291
504	Ry	56.0916	9.76698
505	Ry skov	56.0985	9.64925
506	Rygs bakke	56.8682	8.65175
507	Ryslinge	55.2391	10.533
508	Ryumgaard	56.3794	10.5054
509	Sæby	57.3361	10.5104
510	Sæsing	57.3728	10.1742
511	Sale	56.3388	9.64305
513	Sandalsbjærg	57.2117	9.6764
514	Sandbjærggård	55.5107	9.41884
515	Sandkilde	57.4302	10.0867
516	Seest mølle	55.491	9.40364
517	Selde	56.7822	9.04236
518	Serridslev	55.9016	9.89949
519	Serritslev	57.3159	9.97443
520	Siem	56.0856	9.7868
521	Siem	56.8223	10.0113
522	Silkeborg	56.1712	9.54834
523	Sindal	57.487	10.1813
524	Sindbjærg	55.7969	9.55431
525	Sinddal	57.486	10.1784
526	Sjelle bro	56.4059	10.2434
527	Sjelle mark	56.2026	9.90754
528	Sjelle Skovgård	56.1988	9.90669
529	Skader	56.355	10.2097
530	Skagen	57.7287	10.5657
531	Skanderborg	56.039	9.9302
532	Skårupgård	56.2528	10.2168
533	Skejby	56.1998	10.1763
534	Skelum	56.7625	10.1933
535	Skive	56.5692	9.03276
536	Skjærum	57.4286	10.357
537	Skjelhuse	56.7829	9.8459
538	Skjelskør	55.2554	11.2955
539	Skjern	57.3329	10.2147
540	Skjødstrup	56.2635	10.3033
541	Skjoldelev	56.2324	10.0132
542	Skjørping	56.8674	9.8891
543	Skjørping Station	56.839	9.88977
546	Skørbæk	56.6819	9.72701
547	Skotrup	56.5227	9.70252
548	Skovhul	56.825	9.77327
549	Skovsbo	55.3944	10.6347
550	Skrolde	57.0208	10.1715
551	Skrolløs hede	57.3534	9.86299
552	Slotved fattiggård	57.4805	10.1578
554	Smidie	56.8629	10.1376
555	Smidstrup	55.7805	9.28303
556	Smorup	56.7856	9.63614
557	Snebjærg	56.1353	8.9051
558	Sneftrup Præstegaard	55.9859	9.87414
559	Snoldelev	55.572	12.1292
560	Søbjærg	55.012	12.4498
561	Søby Søgård	55.2948	10.3388
562	Sofiendal	56.1136	9.87999
563	Sølsted	55.0195	8.84693
564	Sønder Kjær, Melholt	57.1044	10.3632
565	Sønder Kongerslev	56.8855	10.1133
566	Sønder Os	56.214	9.00755
567	Sønder Saltum	57.2594	9.7287
568	Sønder Tranders	57.0143	9.98335
569	Sønderbeg, Rejstrup	56.5143	9.84929
570	Søndergård	56.353	10.2084
571	Sønderlev, Skallerup	57.4712	9.87325
572	Sønderup	56.5112	9.56817
573	Sønderup	56.8159	9.65124
574	Sortehøj	56.8982	9.95572
575	Sorte Mose	56.269	10.2866
576	Sortholm	56.4835	9.57199
577	Sørup Sø	57.373	10.1431
578	Spangerhede	57.4327	10.0657
579	Spentrup	56.5403	10.0371
581	Stabrand	56.3143	10.6191
582	Stadsgård	56.504	9.94979
583	Stae	57.0836	10.0886
584	Stahåt	56.3605	10.0989
585	Stempegård	57.3719	9.85551
586	Stenbæk	57.3856	9.85603
588	Stenbroen	57.3912	10.1974
589	Stenild	56.6743	9.67332
590	Stensbæk	57.4333	10.2297
591	Stenum	57.3206	9.8643
592	Stepping	55.3569	9.3581
593	Sterup	57.3123	10.1033
594	Stevnstrup	56.4327	9.94096
595	Stilling sø	56.0619	10.0109
596	Stistrup	56.7479	9.26016
597	Store Restrup	57.0087	9.77628
598	Store-Vårbjærg	55.8893	10.6035
599	Størtum	55.0226	9.4361
600	Stovhøj	57.4143	10.0757
601	Støvhus	57.3958	10.1654
602	Støvring	56.8872	9.84135
603	Støvring Hede	56.9128	9.83202
604	Strandby	56.79	9.21999
605	Strandby	57.4951	10.4945
606	Strands	56.1848	10.4885
607	Struer	56.4881	8.58665
608	Stubberup	56.7131	9.93782
609	Stubberuphus	56.8147	9.78501
610	Stubdrup	56.3542	10.1278
611	Suldrup	56.8519	9.70282
612	Sulsted	57.1543	9.96609
613	Sundby	56.8881	8.58659
615	Svejstrup	56.0714	9.83801
616	Svendstrup	57.3577	10.1232
617	Svolbjærg	56.0487	10.0805
618	Svoldrup	56.7641	9.37339
619	Svostrup	56.2241	9.66498
620	Swarris høj	56.8974	9.24848
621	Syvstykkehøjen	54.8873	11.6737
622	Taaning	56.0132	9.84694
623	Taarup	56.7855	9.31057
624	Taastrup, Herslev sogn	56.1288	9.98797
625	Tåbæk	56.3138	10.1129
626	Taftebjærg mark	55.8805	10.6083
627	Tamdrup	55.2668	9.67331
628	Taps	55.3951	9.47512
629	Tårs	57.3866	10.117
630	Tebstrup	55.973	9.87761
631	Teglgården	56.8655	9.87323
633	Tendrup	56.3124	10.3072
634	Testrup Højskole	56.0701	10.1361
635	Thisted	56.9608	8.69312
636	Tindbæk	56.4634	9.74377
637	Tindinge banke	55.5234	11.3699
638	Tinggårds bro	56.672	8.96867
639	Tise	57.2983	9.8047
640	Tjørnelunde mark	55.5194	11.3589
642	Todbjærg	56.2689	10.2066
643	Tofte	56.8468	10.2159
644	Tofthøj	56.8121	8.4089
645	Tolne church	57.4743	10.3163
646	Tønder	54.942	8.8682
647	Tornby	57.5317	9.94578
648	Tornby-Bjærg	57.536	9.97617
649	Torøhus	55.2453	9.89929
650	Tørring	55.8553	9.48543
651	Tørring	56.1126	9.75968
652	Torsager	56.3435	10.4589
653	Torsbjærg	56.5322	9.35982
654	Torslev	57.352	10.3257
655	Torsted	56.8093	9.70946
656	Torstedlund	56.8071	9.72702
657	Torup	56.8246	9.97645
658	Tovbro	57.4016	9.79687
659	Trige	56.2523	10.1445
660	Troms kirke	69.6485	18.9594
661	Tromsø	69.651	18.9554
663	True -	56.1787	10.0945
664	Trunderup	55.1926	10.5438
665	Trustrup	56.349	10.7713
666	Trydsø	56.7999	9.8183
667	Tuesgård	56.3506	10.143
668	Tustrup mark	56.4593	10.3759
669	Tveden	56.8079	9.82411
670	Tvilum	56.2516	9.68702
671	Tvingstrup	55.9119	9.92706
672	Tylstrup	57.1932	9.94805
673	Ugilt	57.4252	10.1369
674	Ugilt kirke	57.427	10.1383
675	Uglbølle	56.3058	10.4191
676	Ulsted	57.0763	10.257
677	Ulstrup	56.3965	9.79231
679	Urup	55.9497	9.77783
680	Vammen	56.5345	9.57497
681	Vangen	57.386	10.488
682	Vedslet	55.9683	10.0079
683	Vedsted	57.1601	9.70507
684	Veerst	55.5584	9.24419
685	Vejen	55.4862	9.13998
686	Vejen skov	55.484	9.10534
687	Vejle	55.7117	9.55216
688	Vejvad	56.2688	8.70436
689	Vendingshøj	56.3187	10.3079
690	Vendsyssel	57.4658	10.1797
691	Veng	56.1128	9.88317
693	Vengesø	56.1113	9.87599
694	Vester Brønderslev	57.2583	9.95093
695	Vester Hassing	57.0652	10.1201
696	Vester Nebel	55.565	9.40491
697	Vesterbølle	56.7125	9.3669
698	Vester Vugdrup	57.3832	10.1595
699	Viborg	56.4508	9.40549
700	Vidstrup	57.4994	9.94496
701	Viggerslev	55.4752	10.2172
702	Viksnæs	54.8912	11.6568
703	Vilbjærg	56.1975	8.7638
704	Vildmose	57.2133	9.81505
705	Villendrup	56.333	10.203
706	Vilsted	56.9106	9.28803
707	Vilstrup	56.434	10.1073
708	Vindblæs	56.6751	10.145
709	Vinding	56.2749	8.66181
710	Vintønden	56.7937	9.73942
711	Visborg	56.7374	10.1475
712	Vislev	55.3987	8.70807
713	Vissing	56.3662	10.0129
714	Vitrup	57.3937	9.78587
715	Vium	56.6742	8.95881
716	Viv	55.5812	9.48241
717	Vodskov	57.1094	10.0366
718	Vojens	55.2487	9.28854
719	Vojens	56.6526	8.9389
720	Vokslev	56.9665	9.68121
721	Voldum	56.3664	10.1647
722	Vollerup	57.3515	9.88919
723	Volstrup	57.3201	10.4395
724	Vonge	55.8603	9.41943
725	Vorde kirke	56.5305	9.34046
726	Vorgaard	57.2416	10.3359
727	Vorre	56.2783	10.2944
728	Vorsaa	57.2067	10.4904
729	Vosnæsgård	56.2808	10.3449
730	Vraa	57.1957	9.92684
731	Vraa	57.3567	9.94679
732	Vrejlev	57.3603	9.98329
733	Vrendsted	57.3406	9.77719
734	Vrinders	56.2424	10.4971
735	Vugdrup	57.382	10.1608
736	Wår bro	57.5109	10.0053
738	Agerskov, Bording	56.1452	9.2799
739	Ålbæk	57.5911	10.4115
740	Åle	55.8876	9.56112
741	Allerup, Varde	55.4478	8.61389
742	Amerika	41.8819	-87.6278
743	Årup	56.759	9.41644
744	Ås, Tvingstrup	55.9163	9.97233
745	Askov	55.4698	9.09812
746	Asperup	55.4822	9.90727
747	Åsted	56.7718	8.9895
748	Astrup	56.7693	9.98266
749	Bække	55.5718	9.14238
750	Bælum	56.8287	10.1161
751	Billum	55.616	8.33131
752	Bjærgby	56.8683	8.73114
753	Bode	56.478	10.3058
754	Bøffelkobbel	54.9133	9.70452
756	Bovlstrup	55.9424	10.2197
757	Brandstrup	56.3664	9.50728
758	Bredballe	55.7155	9.60583
759	Bredstrup	55.5947	9.66543
760	Brovst	57.0943	9.509
761	Brudager	55.116	10.6748
762	Charlottenlund	55.751	12.5855
763	Dalager	56.8285	9.02887
764	Dalby, Hindsholmen	55.5232	10.6516
765	Dalby-Stubdrup	56.3717	10.006
766	Døstrup	55.1182	8.80444
767	Ellund	54.7955	9.31526
768	Engesvang	56.171	9.3528
769	Fælsted	54.9808	9.50396
770	Falster	54.8162	11.9077
771	Fårbæk	56.3891	8.99743
772	Fårdrup	55.3208	11.343
773	Fårup	56.3633	9.54445
774	Finderup	55.5023	11.3091
775	Firgårde	56.0878	9.80719
776	Fjellerup	56.5089	10.5861
777	Flade, Mors	56.8909	8.79596
778	Fredbjærg, Strandby	56.8102	9.30044
780	Galtrup	56.8459	8.72426
781	Gammelby	55.5172	9.09125
782	Gjesing	55.992	10.0247
783	Glenstrup	56.5842	9.85317
784	Greve	55.5975	12.2408
785	Grønnebæk	55.3644	9.1719
786	Grynderup	56.7097	9.67191
787	Gylling	55.89	10.1699
788	Halskov	54.8021	12.0779
789	Hammerum	56.1371	9.06182
790	Haslund	56.419	10.0253
791	Havlykke	54.8328	11.4289
792	Herskind	56.1855	9.96324
793	Hesselbakke	57.4645	10.2516
794	Hillerslev	55.2066	10.3496
795	Hjallese	55.3596	10.3853
796	Holev	55.4094	10.5088
797	Hørret skov	56.0869	10.1985
798	Hosby	55.7472	10.0121
799	Hurup	56.7562	8.42042
800	Hvidbjærg Hede	56.5669	8.92571
801	Hvidbjærg, Tyholm	56.6634	8.52743
802	Hvilshøj	57.2266	10.03
803	Imer, Klim	57.1112	9.16663
804	Iowa, USA	41.5888	-93.6203
805	Jærnelund	55.4256	8.80278
806	Jærnved	55.4207	8.79118
807	Jævngyde	56.1125	9.81866
808	Jelling	55.7541	9.41612
809	Kirke Skjensved	55.5244	12.1193
810	Kistrup, Assens	56.5207	9.41881
811	Kjeldstrup	56.6818	9.92075
812	Kjelstrup, Tisted	56.9967	8.75359
813	Kokholm	56.4779	9.49942
814	Kongerslev	56.8837	10.1119
815	Kongsted	55.2488	12.0436
816	Kornerup	55.6339	11.9826
817	Krarup mølle	56.5707	8.95567
818	Kvols	56.5266	9.29151
819	Kvotrup, Mundelstrup	56.2162	10.0814
820	Langemark, Samsø	55.8479	10.6226
821	Lem	56.591	8.78439
822	Lervad	55.4558	8.95968
823	Lime	56.3889	10.2484
824	Linå	56.1979	9.69543
825	Lindeballe	55.7706	9.24203
826	Løt, Lendum	57.4112	10.3005
827	Magleby	54.9861	12.4919
828	Malle, Løgstør	56.9205	9.23955
829	Maribo	54.7743	11.5091
830	Marielyst	55.6874	12.5674
831	Mosehusene, Jetsmark	56.5276	9.92211
832	Munkebjærgby	55.5074	11.5257
833	Nimtoft	56.4107	10.563
834	Nørager	56.347	10.6365
835	Nørbeg	56.5389	9.82306
836	Nordrup	55.4822	11.4157
837	Nykjøbing, Mors	56.7946	8.85868
838	Ø Marie	55.1438	9.01853
839	Ommel, Ærø	54.8735	10.4898
840	Ormitslev	55.3518	11.2424
841	Ørridslev	55.9393	9.93701
842	Ørritslev	55.5004	10.2287
843	Ørsted	56.5533	10.3623
844	Øst Marie, Bornholm	55.1435	9.01851
845	Øster Lem	56.045	8.4287
846	Øster Vandet	56.9958	8.61685
847	Påbøl	55.8192	8.76849
848	Palsgård	55.6785	11.4822
849	Pilemark, Samsø	55.8412	10.601
850	Rævhede	57.1662	9.69007
851	Ramten	56.4379	10.6294
852	Randrup	56.7499	8.31272
853	Refshalegård	56.19	9.38267
854	Ringe, Fyn	55.2403	10.4829
855	Rødhus, Hune	57.2177	9.54674
856	Romdrup-Klarup	57.0015	10.0385
857	Rønslund	55.9405	9.32256
858	Sale	56.2812	9.82669
859	Samsø	55.8278	10.5869
860	Sejling	56.2176	9.52005
861	Selsinggårde, Samsø	55.8343	10.5599
862	Sillestrup	54.7238	11.9657
863	Sinding	56.2097	9.4657
864	Sjellerup	55.0005	9.86173
865	Sjøring, Tisted	56.9591	8.59015
866	Skallerup, Hjørring	57.4795	9.85687
867	Skallerup, Mors	56.8535	8.65881
868	Skals	56.5522	9.40683
869	Skibsby	57.4833	10.0215
870	Skjolde	55.7986	9.9459
871	Skjørtholt	57.4244	10.358
872	Snedsted	56.8954	8.52354
873	Snogbæk, Sundeved	54.9633	9.70894
874	Søby	56.5307	9.11125
875	Søheden	57.3001	10.1857
876	Søllinge	55.2856	10.5368
877	Sønderkjær	56.2921	8.37482
878	Staby	56.2645	8.24156
879	Sterregård	55.1041	10.4317
880	Stjær	56.1167	9.95282
881	Strandby	56.7872	9.21668
883	Sundby	56.881	8.67674
884	Sundeved	54.9204	9.82811
885	Sundstrup	56.6073	9.30243
886	Svendborg	55.0658	10.6229
887	Tanderup	55.841	10.5563
888	Tapdrup	56.4389	9.48691
889	Testrup	56.987	9.77588
890	Tingerup	56.4389	9.48691
891	Tirstrup	56.3004	10.6864
892	Tislum	57.4453	10.2667
893	Torsted, Tim	56.2077	8.41856
894	Tovstrup	56.7353	8.95168
895	Tulstrup	56.1104	9.77957
896	Tyholm	57.0986	9.60315
897	Udbyovre	56.6501	10.2114
898	Ulfborg	56.2723	8.31756
899	Værslev	55.6552	11.2133
900	Vallekilde	55.5333	8.9554
901	Vangeskrog	57.2615	10.1662
902	Vedersø	56.2334	8.20006
903	Vejlø	55.1776	11.7535
904	Vendsted, Åbybro	57.1613	9.70719
905	Vester Egede	55.2654	11.9643
906	Vester Tørslev	56.5967	9.90039
907	Vester Vedsted	55.2919	8.68282
908	Viemose, Kalvhave	55.0164	12.1399
909	Vigsnæs, Låland	54.8894	11.6554
910	Vinkel	56.4211	9.4982
911	Vinten-Enner	55.908	9.74228
912	Virklund	56.1303	9.55943
913	Voldby	56.4632	10.8684
914	Vole	56.1938	9.69566
915	Vore, Rugsø	56.5239	10.2689
916	Vosborg	56.0874	8.35511
919	Kirke Værløse	55.7849	12.3212
920	Sebber kloster	56.9626	9.53611
921	Barmer	56.9787	9.54011
922	Tøndering	56.7389	8.98512
923	Skjæve	57.288	10.3106
924	Gråkjær	56.7584	8.57489
925	Ovsted	55.9721	9.85777
926	Søvind	55.8935	10.0017
927	Kjelst	55.5947	8.29601
928	Gøttrup	57.0551	9.21304
929	Frisenborg	56.2642	9.89111
930	Kåstrup	57.0269	8.73225
931	Holmsland	56.1271	8.19015
932	Søgård	56.1389	8.19223
933	Dokkedal	56.905	10.2527
934	Mou	56.9678	10.2217
935	Tyrskind	55.702	9.3831
936	Sødinge Skole	57.4404	10.4068
937	Trebjærg	55.8877	9.6833
938	Hoved kro	55.9451	9.9625
939	Vrenderup	55.6174	8.7275
940	Dalby Over	56.6217	10.2028
941	Gjerlev	56.5892	10.1309
942	Gassum	56.5769	9.9986
943	Hvedsten	56.5574	10
944	Hoven Højskole	55.8524	8.7609
945	Bavnehøj-mølle	56.4237	10.8627
946	Vallensbæk	55.637	12.3675
947	Grinderslevkloster	56.6961	9.0696
948	Åsum	55.4017	10.4644
949	Odense	55.3986	10.3913
950	Vester Grønning	56.6525	9.0522
951	Højby	55.3333	10.4499
